[
  {
    "id": 1850147,
    "name": "Tokyo",
    "state": "",
    "country": "JP",
    "coord": {
      "lon": 139.691711,
      "lat": 35.689499
    }
  },
  {
    "id": 1853908,
    "name": "Osaka",
    "state": "",
    "country": "JP",
    "coord": {
      "lon": 137.266663,
      "lat": 35.950001
    }
  },
  {
    "id": 1851012,
    "name": "Takarazuka",
    "state": "",
    "country": "JP",
    "coord": {
      "lon": 135.356964,
      "lat": 34.799358
    }
  },
  {
    "id": 2130037,
    "name": "Hokkaido",
    "state": "",
    "country": "JP",
    "coord": {
      "lon": 141.346603,
      "lat": 43.06451
    }
  },
  {
    "id": 1854345,
    "name": "Okinawa",
    "state": "",
    "country": "JP",
    "coord": {
      "lon": 126.668709,
      "lat": 25.772249
    }
  },
  {
    "id": 6173331,
    "name": "Vancouver",
    "state": "",
    "country": "CA",
    "coord": {
      "lon": -123.119339,
      "lat": 49.24966
    }
  },
  {
    "id": 6167865,
    "name": "Toronto",
    "state": "",
    "country": "CA",
    "coord": {
      "lon": -79.416298,
      "lat": 43.700111
    }
  },
  {
    "id": 6077246,
    "name": "Montréal",
    "state": "",
    "country": "CA",
    "coord": {
      "lon": -73.68248,
      "lat": 45.50008
    }
  },
  {
    "id": 6325494,
    "name": "Québec",
    "state": "",
    "country": "CA",
    "coord": {
      "lon": -71.214539,
      "lat": 46.812279
    }
  },
  {
    "id": 5913490,
    "name": "Calgary",
    "state": "",
    "country": "CA",
    "coord": {
      "lon": -114.085289,
      "lat": 51.05011
    }
  },
  {
    "id": 5128638,
    "name": "New York",
    "state": "NY",
    "country": "US",
    "coord": {
      "lon": -75.499901,
      "lat": 43.000351
    }
  },
  {
    "id": 4930956,
    "name": "Boston",
    "state": "MA",
    "country": "US",
    "coord": {
      "lon": -71.059769,
      "lat": 42.358429
    }
  },
  {
    "id": 4560349,
    "name": "Philadelphia",
    "state": "PA",
    "country": "US",
    "coord": {
      "lon": -75.163788,
      "lat": 39.952339
    }
  },
  {
    "id": 4887398,
    "name": "Chicago",
    "state": "IL",
    "country": "US",
    "coord": {
      "lon": -87.650047,
      "lat": 41.850029
    }
  },
  {
    "id": 4990729,
    "name": "Detroit",
    "state": "MI",
    "country": "US",
    "coord": {
      "lon": -83.045753,
      "lat": 42.331429
    }
  },
  {
    "id": 4259418,
    "name": "Indianapolis",
    "state": "IN",
    "country": "US",
    "coord": {
      "lon": -86.158043,
      "lat": 39.768379
    }
  },
  {
    "id": 4140963,
    "name": "Washington, D.C.",
    "state": "DC",
    "country": "US",
    "coord": {
      "lon": -77.036369,
      "lat": 38.895111
    }
  },
  {
    "id": 4180439,
    "name": "Atlanta",
    "state": "GA",
    "country": "US",
    "coord": {
      "lon": -84.387978,
      "lat": 33.749001
    }
  },
  {
    "id": 4167147,
    "name": "Orlando",
    "state": "FL",
    "country": "US",
    "coord": {
      "lon": -81.379242,
      "lat": 28.53834
    }
  },
  {
    "id": 4164138,
    "name": "Miami",
    "state": "FL",
    "country": "US",
    "coord": {
      "lon": -80.193657,
      "lat": 25.774269
    }
  },
  {
    "id": 4335045,
    "name": "New Orleans",
    "state": "LA",
    "country": "US",
    "coord": {
      "lon": -90.075073,
      "lat": 29.954651
    }
  },
  {
    "id": 4699066,
    "name": "Houston",
    "state": "TX",
    "country": "US",
    "coord": {
      "lon": -95.363274,
      "lat": 29.763281
    }
  },
  {
    "id": 4671654,
    "name": "Austin",
    "state": "TX",
    "country": "US",
    "coord": {
      "lon": -97.743057,
      "lat": 30.267151
    }
  },
  {
    "id": 4684888,
    "name": "Dallas",
    "state": "TX",
    "country": "US",
    "coord": {
      "lon": -96.806671,
      "lat": 32.783058
    }
  },
  {
    "id": 4726206,
    "name": "San Antonio",
    "state": "TX",
    "country": "US",
    "coord": {
      "lon": -98.493629,
      "lat": 29.42412
    }
  },
  {
    "id": 4691930,
    "name": "Fort Worth",
    "state": "TX",
    "country": "US",
    "coord": {
      "lon": -97.320847,
      "lat": 32.72541
    }
  },
  {
    "id": 5419384,
    "name": "Denver",
    "state": "CO",
    "country": "US",
    "coord": {
      "lon": -104.984703,
      "lat": 39.739151
    }
  },
  {
    "id": 5809844,
    "name": "Seattle",
    "state": "WA",
    "country": "US",
    "coord": {
      "lon": -122.332069,
      "lat": 47.606209
    }
  },
  {
    "id": 5746545,
    "name": "Portland",
    "state": "OR",
    "country": "US",
    "coord": {
      "lon": -122.676208,
      "lat": 45.523449
    }
  },
  {
    "id": 5391959,
    "name": "San Francisco",
    "state": "CA",
    "country": "US",
    "coord": {
      "lon": -122.419418,
      "lat": 37.774929
    }
  },
  {
    "id": 5368361,
    "name": "Los Angeles",
    "state": "CA",
    "country": "US",
    "coord": {
      "lon": -118.243683,
      "lat": 34.052231
    }
  },
  {
    "id": 5391811,
    "name": "San Diego",
    "state": "CA",
    "country": "US",
    "coord": {
      "lon": -117.157257,
      "lat": 32.715328
    }
  },
  {
    "id": 5506956,
    "name": "Las Vegas",
    "state": "NV",
    "country": "US",
    "coord": {
      "lon": -115.137222,
      "lat": 36.174969
    }
  },
  {
    "id": 5856195,
    "name": "Honolulu",
    "state": "HI",
    "country": "US",
    "coord": {
      "lon": -157.858337,
      "lat": 21.30694
    }
  },
  {
    "id": 1609350,
    "name": "Bangkok",
    "state": "",
    "country": "TH",
    "coord": {
      "lon": 100.51667,
      "lat": 13.75
    }
  },
  {
    "id": 1153671,
    "name": "Chiang Mai",
    "state": "",
    "country": "TH",
    "coord": {
      "lon": 98.98468,
      "lat": 18.79038
    }
  },
  {
    "id": 1151254,
    "name": "Phuket",
    "state": "",
    "country": "TH",
    "coord": {
      "lon": 98.398102,
      "lat": 7.89059
    }
  },
  {
    "id": 1701668,
    "name": "Manila",
    "state": "",
    "country": "PH",
    "coord": {
      "lon": 120.982201,
      "lat": 14.6042
    }
  },
  {
    "id": 1717512,
    "name": "Cebu City",
    "state": "",
    "country": "PH",
    "coord": {
      "lon": 123.890709,
      "lat": 10.31672
    }
  },
  {
    "id": 7521309,
    "name": "Davao",
    "state": "",
    "country": "PH",
    "coord": {
      "lon": 125.708481,
      "lat": 6.81304
    }
  },
  {
    "id": 1581130,
    "name": "Ha Noi",
    "state": "",
    "country": "VN",
    "coord": {
      "lon": 105.841171,
      "lat": 21.0245
    }
  },
  {
    "id": 1566083,
    "name": "Ho Chi Minh",
    "state": "",
    "country": "VN",
    "coord": {
      "lon": 106.666672,
      "lat": 10.75
    }
  },
  {
    "id": 1580541,
    "name": "Hoi An",
    "state": "",
    "country": "VN",
    "coord": {
      "lon": 108.334999,
      "lat": 15.87944
    }
  },
  {
    "id": 1580240,
    "name": "Hue",
    "state": "",
    "country": "VN",
    "coord": {
      "lon": 107.599998,
      "lat": 16.466669
    }
  },
  {
    "id": 1835848,
    "name": "Seoul",
    "state": "",
    "country": "KR",
    "coord": {
      "lon": 126.977829,
      "lat": 37.56826
    }
  },
  {
    "id": 1838524,
    "name": "Busan",
    "state": "",
    "country": "KR",
    "coord": {
      "lon": 129.040283,
      "lat": 35.102779
    }
  },
  {
    "id": 1835235,
    "name": "Daejeon",
    "state": "",
    "country": "KR",
    "coord": {
      "lon": 127.419724,
      "lat": 36.321388
    }
  },
  {
    "id": 1816670,
    "name": "Beijing",
    "state": "",
    "country": "CN",
    "coord": {
      "lon": 116.397232,
      "lat": 39.907501
    }
  },
  {
    "id": 1796236,
    "name": "Shanghai",
    "state": "",
    "country": "CN",
    "coord": {
      "lon": 121.458061,
      "lat": 31.222219
    }
  },
  {
    "id": 1795565,
    "name": "Shenzhen",
    "state": "",
    "country": "CN",
    "coord": {
      "lon": 114.068298,
      "lat": 22.54554
    }
  },
  {
    "id": 7280290,
    "name": "Taipei",
    "state": "",
    "country": "TW",
    "coord": {
      "lon": 121.651611,
      "lat": 25.025881
    }
  },
  {
    "id": 7280289,
    "name": "Kaohsiung",
    "state": "",
    "country": "TW",
    "coord": {
      "lon": 120.366211,
      "lat": 22.634291
    }
  },
  {
    "id": 1819729,
    "name": "Hong Kong",
    "state": "",
    "country": "HK",
    "coord": {
      "lon": 114.157692,
      "lat": 22.285521
    }
  },
  {
    "id": 1821274,
    "name": "Macau",
    "state": "",
    "country": "MO",
    "coord": {
      "lon": 113.546112,
      "lat": 22.20056
    }
  },
  {
    "id": 2147714,
    "name": "Sydney",
    "state": "",
    "country": "AU",
    "coord": {
      "lon": 151.207321,
      "lat": -33.867851
    }
  },
  {
    "id": 7839805,
    "name": "Melbourne",
    "state": "",
    "country": "AU",
    "coord": {
      "lon": 144.944214,
      "lat": -37.813061
    }
  },
  {
    "id": 2172517,
    "name": "Canberra",
    "state": "",
    "country": "AU",
    "coord": {
      "lon": 149.128067,
      "lat": -35.283459
    }
  },
  {
    "id": 7839562,
    "name": "Brisbane",
    "state": "",
    "country": "AU",
    "coord": {
      "lon": 153.029938,
      "lat": -27.44573
    }
  },
  {
    "id": 7839567,
    "name": "Cairns",
    "state": "",
    "country": "AU",
    "coord": {
      "lon": 145.752869,
      "lat": -16.902679
    }
  },
  {
    "id": 2153391,
    "name": "Perth",
    "state": "",
    "country": "AU",
    "coord": {
      "lon": 147.166672,
      "lat": -41.566669
    }
  },
  {
    "id": 2643743,
    "name": "London",
    "state": "",
    "country": "GB",
    "coord": {
      "lon": -0.12574,
      "lat": 51.50853
    }
  }
]
